{"region":"서울","contentType":"축제공연행사","contentTypeId":15,"total":201,"included":120,"items":[{"id":"2556687","contentTypeId":"15","title":"문학주간 2026","address":"서울특별시 종로구 대학로 104 (동숭동)","tel":"070-7954-1369","image":"https://tong.visitkorea.or.kr/cms/resource/47/4077947_image2_1.jpg","thumbnail":"https://tong.visitkorea.or.kr/cms/resource/47/4077947_image3_1.jpg","lat":37.580512461,"lng":127.0023742293,"modifiedAt":"20260622154640"},{"id":"4076709","contentTypeId":"15","title":"문구전 2026 여름","address":"서울특별시 서초구 강남대로 27 (양재동)","tel":"02-6010-9536","image":"https://tong.visitkorea.or.kr/cms/resource/26/4076726_image2_1.png","thumbnail":"https://tong.visitkorea.or.kr/cms/resource/26/4076726_image3_1.png","lat":37.4682787075,"lng":127.0391364334,"modifiedAt":"20260617174927"},{"id":"1018469","contentTypeId":"15","title":"서울국제작가축제","address":"서울특별시 종로구 인사동9길 26 (견지동)","tel":"02-6339-1232","image":"https://tong.visitkorea.or.kr/cms/resource/69/4073769_image2_1.jpg","thumbnail":"https://tong.visitkorea.or.kr/cms/resource/69/4073769_image3_1.jpg","lat":37.5734199329,"lng":126.9836265705,"modifiedAt":"20260615165104"},{"id":"4074598","contentTypeId":"15","title":"초안산 수국축제","address":"서울특별시 노원구 월계동 산46-3","tel":"02-2116-7142","image":"https://tong.visitkorea.or.kr/cms/resource/00/4074600_image2_1.jpg","thumbnail":"https://tong.visitkorea.or.kr/cms/resource/00/4074600_image3_1.jpg","lat":37.6294432,"lng":127.047566,"modifiedAt":"20260612162137"},{"id":"4071535","contentTypeId":"15","title":"2026 농촌여행 페스티벌 (제14회 도농교류의 날 기념)","address":"서울특별시 중구 을지로 지하12 (을지로1가)","tel":"1577-1417","image":"https://tong.visitkorea.or.kr/cms/resource/19/4071619_image2_1.jpg","thumbnail":"https://tong.visitkorea.or.kr/cms/resource/19/4071619_image3_1.jpg","lat":37.565567165,"lng":126.9783328596,"modifiedAt":"20260612151607"},{"id":"2756396","contentTypeId":"15","title":"덕수궁 밤의 석조전","address":"서울특별시 중구 세종대로 99 (정동)","tel":"1522-2295","image":"https://tong.visitkorea.or.kr/cms/resource/03/4073903_image2_1.jpg","thumbnail":"https://tong.visitkorea.or.kr/cms/resource/03/4073903_image3_1.jpg","lat":37.5650549194,"lng":126.9765746344,"modifiedAt":"20260612092803"},{"id":"2612274","contentTypeId":"15","title":"관악강감찬축제","address":"서울특별시 관악구 낙성대로 77 (봉천동)","tel":"02-828-5766","image":"https://tong.visitkorea.or.kr/cms/resource/31/4073831_image2_1.jpg","thumbnail":"https://tong.visitkorea.or.kr/cms/resource/31/4073831_image3_1.jpg","lat":37.4715875501,"lng":126.9587204342,"modifiedAt":"20260611143528"},{"id":"2616325","contentTypeId":"15","title":"서울국악축제","address":"서울특별시 서초구 신반포로11길 40 (반포동)","tel":"1800-4746","image":"https://tong.visitkorea.or.kr/cms/resource/47/4061947_image2_1.jpg","thumbnail":"https://tong.visitkorea.or.kr/cms/resource/47/4061947_image3_1.jpg","lat":37.5076939718,"lng":126.9927309841,"modifiedAt":"20260610140336"},{"id":"4069856","contentTypeId":"15","title":"서초 클래식 테마파크","address":"서울특별시 서초구 방배중앙로19길 4 (방배동)","tel":"070-4266-5367010-5149-5313","image":"https://tong.visitkorea.or.kr/cms/resource/62/4069862_image2_1.jpg","thumbnail":"https://tong.visitkorea.or.kr/cms/resource/62/4069862_image3_1.jpg","lat":37.4898764289,"lng":126.9868918551,"modifiedAt":"20260610083438"},{"id":"3544886","contentTypeId":"15","title":"서울어텀페스타","address":"서울특별시 중구 세종대로 110 (태평로1가)","tel":"02-758-2037","image":"https://tong.visitkorea.or.kr/cms/resource/66/4031666_image2_1.jpg","thumbnail":"https://tong.visitkorea.or.kr/cms/resource/66/4031666_image3_1.jpg","lat":37.5662050219,"lng":126.9777062791,"modifiedAt":"20260608144549"},{"id":"2497537","contentTypeId":"15","title":"2026 한강나이트워크42K","address":"서울특별시 영등포구 여의공원로 68 (여의도동)","tel":"070-4705-2008","image":"https://tong.visitkorea.or.kr/cms/resource/63/4071363_image2_1.jpg","thumbnail":"https://tong.visitkorea.or.kr/cms/resource/63/4071363_image3_1.jpg","lat":37.524979,"lng":126.937696,"modifiedAt":"20260608101804"},{"id":"2826964","contentTypeId":"15","title":"그루브 인 관악","address":"서울특별시 관악구 신림로3길 35 (신림동)","tel":"02-828-5764","image":"https://tong.visitkorea.or.kr/cms/resource/42/4071342_image2_1.jpg","thumbnail":"https://tong.visitkorea.or.kr/cms/resource/42/4071342_image3_1.jpg","lat":37.4675533646,"lng":126.9449623941,"modifiedAt":"20260605165856"},{"id":"2738786","contentTypeId":"15","title":"서울세계도시문화축제","address":"서울특별시 중구 을지로 281 (을지로7가)","tel":"010-8156-2661","image":"https://tong.visitkorea.or.kr/cms/resource/13/4070713_image2_1.JPG","thumbnail":"https://tong.visitkorea.or.kr/cms/resource/13/4070713_image3_1.JPG","lat":37.5660539726,"lng":127.0095547691,"modifiedAt":"20260605084251"},{"id":"4070216","contentTypeId":"15","title":"2026 글로벌 크리에이터 아트페어","address":"서울특별시 마포구 동교동","tel":"010-7621-3714","image":"https://tong.visitkorea.or.kr/cms/resource/48/4070348_image2_1.jpg","thumbnail":"https://tong.visitkorea.or.kr/cms/resource/48/4070348_image3_1.jpg","lat":37.556896,"lng":126.924142,"modifiedAt":"20260602175402"},{"id":"3113671","contentTypeId":"15","title":"전국빵지자랑","address":"서울특별시 송파구 양재대로 932 (가락동)","tel":"02-3435-0257","image":"https://tong.visitkorea.or.kr/cms/resource/48/4070248_image2_1.jpg","thumbnail":"https://tong.visitkorea.or.kr/cms/resource/48/4070248_image3_1.jpg","lat":37.4960246565506,"lng":127.11075320085199,"modifiedAt":"20260602162629"},{"id":"3524889","contentTypeId":"15","title":"GES2026 (게임 e스포츠 서울)","address":"서울특별시 중구 을지로 281 (을지로7가)","tel":"010-4812-8679","image":"https://tong.visitkorea.or.kr/cms/resource/45/4070145_image2_1.jpg","thumbnail":"https://tong.visitkorea.or.kr/cms/resource/45/4070145_image3_1.jpg","lat":37.56605397262908,"lng":127.00955476908904,"modifiedAt":"20260602153045"},{"id":"2001015","contentTypeId":"15","title":"성북세계음식축제 누리마실","address":"서울특별시 성북구 성북동 142-1","tel":"02-6906-9298","image":"https://tong.visitkorea.or.kr/cms/resource/63/4056263_image2_1.jpg","thumbnail":"https://tong.visitkorea.or.kr/cms/resource/63/4056263_image3_1.jpg","lat":37.59279,"lng":127.002239,"modifiedAt":"20260602143419"},{"id":"3473295","contentTypeId":"15","title":"DDP 건축투어","address":"서울특별시 중구 을지로 281 (을지로7가)","tel":"02-2153-0310, 0311 (12:00~13:00 점심시간)","image":"https://tong.visitkorea.or.kr/cms/resource/09/4046009_image2_1.png","thumbnail":"https://tong.visitkorea.or.kr/cms/resource/09/4046009_image3_1.png","lat":37.56605397262908,"lng":127.00955476908904,"modifiedAt":"20260602141314"},{"id":"4065756","contentTypeId":"15","title":"2026 N서울타워 글로벌 나이트워크","address":"서울특별 중구 회현동1가 100-115","tel":"02-554-9795","image":"https://tong.visitkorea.or.kr/cms/resource/53/4065953_image2_1.png","thumbnail":"https://tong.visitkorea.or.kr/cms/resource/53/4065953_image3_1.png","lat":37.555064,"lng":126.979198,"modifiedAt":"20260602135443"},{"id":"3498398","contentTypeId":"15","title":"2026년 강제동원 희생자를 기리는 유족·시민 어울림행사","address":"서울특별시 중구 태평로1가 1","tel":"070-4624-2816","image":"https://tong.visitkorea.or.kr/cms/resource/80/4069880_image2_1.jpg","thumbnail":"https://tong.visitkorea.or.kr/cms/resource/80/4069880_image3_1.jpg","lat":37.569249,"lng":126.978013,"modifiedAt":"20260602111228"},{"id":"3111722","contentTypeId":"15","title":"한강역사탐방","address":"서울특별시 영등포구 여의동로 330 (여의도동)","tel":"02-6953-9239","image":"https://tong.visitkorea.or.kr/cms/resource/49/4058449_image2_1.png","thumbnail":"https://tong.visitkorea.or.kr/cms/resource/49/4058449_image3_1.png","lat":37.526347853294425,"lng":126.93359519306124,"modifiedAt":"20260601162947"},{"id":"1817328","contentTypeId":"15","title":"창립 65주년 기념 한국경제인협회와 함께하는 2026 서울시향 강변음악회","address":"서울특별시 영등포구 한강남자전거길 1451 (여의도동)","tel":"1588-1210","image":"https://tong.visitkorea.or.kr/cms/resource/83/4069183_image2_1.jpg","thumbnail":"https://tong.visitkorea.or.kr/cms/resource/83/4069183_image3_1.jpg","lat":37.5308485071395,"lng":126.927745696174,"modifiedAt":"20260529133807"},{"id":"2387785","contentTypeId":"15","title":"2026 보드게임콘","address":"서울특별시 강남구 영동대로 513 (삼성동)","tel":"070-8611-9803","image":"https://tong.visitkorea.or.kr/cms/resource/36/4067236_image2_1.jpg","thumbnail":"https://tong.visitkorea.or.kr/cms/resource/36/4067236_image3_1.jpg","lat":37.51186515083277,"lng":127.05920358462161,"modifiedAt":"20260522111848"},{"id":"4064543","contentTypeId":"15","title":"제23회 한강사랑 그림그리기 대회","address":"서울특별시 광진구 자양동 704-1","tel":"02-458-3315","image":"https://tong.visitkorea.or.kr/cms/resource/50/4064550_image2_1.jpg","thumbnail":"https://tong.visitkorea.or.kr/cms/resource/50/4064550_image3_1.jpg","lat":37.529629,"lng":127.069985,"modifiedAt":"20260514143943"},{"id":"2953055","contentTypeId":"15","title":"2026 책 읽는 대한민국 캠페인 선포식","address":"서울특별시 강남구 영동대로 513 (삼성동)","tel":"02-3675-8780","image":"https://tong.visitkorea.or.kr/cms/resource/67/4064467_image2_1.jpg","thumbnail":"https://tong.visitkorea.or.kr/cms/resource/67/4064467_image3_1.jpg","lat":37.5118239121138,"lng":127.059159043842,"modifiedAt":"20260514100859"},{"id":"1717921","contentTypeId":"15","title":"D.FESTA 거리공연축제","address":"서울특별시 종로구 대학로 104 (동숭동)","tel":"02-741-4188","image":"https://tong.visitkorea.or.kr/cms/resource/07/4064407_image2_1.jpg","thumbnail":"https://tong.visitkorea.or.kr/cms/resource/07/4064407_image3_1.jpg","lat":37.58051246104506,"lng":127.00237422934477,"modifiedAt":"20260514082738"},{"id":"4058500","contentTypeId":"15","title":"ING 페스티벌","address":"서울특별시 성동구 왕십리로 63 (성수동1가)","tel":"02-2632-9077","image":"https://tong.visitkorea.or.kr/cms/resource/22/4059422_image2_1.jpg","thumbnail":"https://tong.visitkorea.or.kr/cms/resource/22/4059422_image3_1.jpg","lat":37.5436228045917,"lng":127.043585906393,"modifiedAt":"20260514082738"},{"id":"3113583","contentTypeId":"15","title":"차 없는 잠수교 뚜벅뚜벅축제","address":"서울특별시 서초구 반포동","tel":"02-6401-9717","image":"https://tong.visitkorea.or.kr/cms/resource/24/4063024_image2_1.jpg","thumbnail":"https://tong.visitkorea.or.kr/cms/resource/24/4063024_image3_1.jpg","lat":37.512861,"lng":126.997353,"modifiedAt":"20260511165533"},{"id":"3011948","contentTypeId":"15","title":"양재아트살롱","address":"서울특별시 서초구 양재동","tel":"02-6951-0299","image":"https://tong.visitkorea.or.kr/cms/resource/76/3530176_image2_1.jpg","thumbnail":"https://tong.visitkorea.or.kr/cms/resource/76/3530176_image3_1.jpg","lat":37.476743,"lng":127.041497,"modifiedAt":"20260511163713"},{"id":"2818857","contentTypeId":"15","title":"유기농데이","address":"서울특별시 중구 태평로1가 1","tel":"031-774-3312","image":"https://tong.visitkorea.or.kr/cms/resource/59/4063059_image2_1.jpg","thumbnail":"https://tong.visitkorea.or.kr/cms/resource/59/4063059_image3_1.jpg","lat":37.569192,"lng":126.978019,"modifiedAt":"20260508145832"},{"id":"2718984","contentTypeId":"15","title":"서울일러스트레이션페어V.21","address":"서울특별시 강남구 영동대로 513 (삼성동)","tel":"02-2602-8602","image":"https://tong.visitkorea.or.kr/cms/resource/78/4062778_image2_1.png","thumbnail":"https://tong.visitkorea.or.kr/cms/resource/78/4062778_image3_1.png","lat":37.51186515083277,"lng":127.05920358462161,"modifiedAt":"20260507152309"},{"id":"2560317","contentTypeId":"15","title":"2026 우리 임산물 숲푸드 대축제","address":"서울특별시 종로구 세종대로 175 (세종로)","tel":"02-545-0639","image":"https://tong.visitkorea.or.kr/cms/resource/43/4062743_image2_1.png","thumbnail":"https://tong.visitkorea.or.kr/cms/resource/43/4062743_image3_1.png","lat":37.57200988776222,"lng":126.97630706471843,"modifiedAt":"20260507143943"},{"id":"1829696","contentTypeId":"15","title":"아시아프 (ASYAAF 100)","address":"서울특별시 중구 세종대로21길 30 (태평로1가)","tel":"02-724-6361","image":"https://tong.visitkorea.or.kr/cms/resource/49/4057349_image2_1.jpg","thumbnail":"https://tong.visitkorea.or.kr/cms/resource/49/4057349_image3_1.jpg","lat":37.5678450408989,"lng":126.975895739578,"modifiedAt":"20260507141605"},{"id":"1998564","contentTypeId":"15","title":"궁중문화축전","address":"서울특별시 종로구 사직로 161","tel":"1522-2295","image":"https://tong.visitkorea.or.kr/cms/resource/86/4055386_image2_1.jpg","thumbnail":"https://tong.visitkorea.or.kr/cms/resource/86/4055386_image3_1.jpg","lat":37.5787676269878,"lng":126.976976800907,"modifiedAt":"20260506133634"},{"id":"3116057","contentTypeId":"15","title":"중앙아시아 봄맞이축제","address":"서울특별시 중구 세종대로 110 (태평로1가)","tel":"02-3488-8339","image":"https://tong.visitkorea.or.kr/cms/resource/70/4062170_image2_1.jpg","thumbnail":"https://tong.visitkorea.or.kr/cms/resource/70/4062170_image3_1.jpg","lat":37.566370776634,"lng":126.977918351844,"modifiedAt":"20260506133630"},{"id":"4055101","contentTypeId":"15","title":"DDP 루프탑투어","address":"서울특별시 중구 을지로 281 (을지로7가)","tel":"02-2153-0310","image":"https://tong.visitkorea.or.kr/cms/resource/67/4056467_image2_1.jpg","thumbnail":"https://tong.visitkorea.or.kr/cms/resource/67/4056467_image3_1.jpg","lat":37.5680445876689,"lng":127.010890355484,"modifiedAt":"20260506130155"},{"id":"3495688","contentTypeId":"15","title":"2026 귀어귀촌 어촌관광 한마당","address":"서울특별시 종로구 세종대로 지하172 (세종로)","tel":"02-701-3812","image":"https://tong.visitkorea.or.kr/cms/resource/21/4062121_image2_1.jpg","thumbnail":"https://tong.visitkorea.or.kr/cms/resource/21/4062121_image3_1.jpg","lat":37.5716228232824,"lng":126.976787992565,"modifiedAt":"20260506110736"},{"id":"4060866","contentTypeId":"15","title":"제104회 어린이날 기념행사","address":"서울특별시 중구 소공로 106 (소공동)","tel":"02-3463-5020","image":"https://tong.visitkorea.or.kr/cms/resource/91/4061391_image2_1.png","thumbnail":"https://tong.visitkorea.or.kr/cms/resource/91/4061391_image3_1.png","lat":37.5644841324893,"lng":126.980184460247,"modifiedAt":"20260430141512"},{"id":"3310483","contentTypeId":"15","title":"어린이·가족 예술축제","address":"서울특별시 양천구 남부순환로64길 2 (신월동)","tel":"02-2697-0014","image":"https://tong.visitkorea.or.kr/cms/resource/18/4012118_image2_1.jpg","thumbnail":"https://tong.visitkorea.or.kr/cms/resource/18/4012118_image3_1.jpg","lat":37.52822008764788,"lng":126.83214572562274,"modifiedAt":"20260430101003"},{"id":"2490376","contentTypeId":"15","title":"겸재문화예술제","address":"서울특별시 강서구 양천로47길 36 (마곡동)","tel":"02-2659-2206~7, 02-2600-6581","image":"https://tong.visitkorea.or.kr/cms/resource/35/4061535_image2_1.jpg","thumbnail":"https://tong.visitkorea.or.kr/cms/resource/35/4061535_image3_1.jpg","lat":37.572228016527,"lng":126.838412693156,"modifiedAt":"20260430093852"},{"id":"4060158","contentTypeId":"15","title":"한강 서래섬 피크닉 콘서트","address":"서울특별시 서초구 신반포로11길 40 (반포동)","tel":"02-120","image":"https://tong.visitkorea.or.kr/cms/resource/56/4061456_image2_1.jpg","thumbnail":"https://tong.visitkorea.or.kr/cms/resource/56/4061456_image3_1.jpg","lat":37.5076939718271,"lng":126.992730984132,"modifiedAt":"20260429171712"},{"id":"4061361","contentTypeId":"15","title":"강북 백맥축제","address":"서울특별시 강북구 도봉로97길 45 (수유동)","tel":"02-901-7253","image":"https://tong.visitkorea.or.kr/cms/resource/74/4061374_image2_1.JPG","thumbnail":"https://tong.visitkorea.or.kr/cms/resource/74/4061374_image3_1.JPG","lat":37.642712990065,"lng":127.026993589862,"modifiedAt":"20260429142623"},{"id":"2968672","contentTypeId":"15","title":"DDP 어린이 디자인 페스티벌","address":"서울특별시 중구 을지로 281","tel":"02-2153-0083","image":"https://tong.visitkorea.or.kr/cms/resource/32/4060932_image2_1.jpg","thumbnail":"https://tong.visitkorea.or.kr/cms/resource/32/4060932_image3_1.jpg","lat":37.56605397262908,"lng":127.00955476908904,"modifiedAt":"20260428142731"},{"id":"4060434","contentTypeId":"15","title":"국악공연 진연","address":"서울특별시 종로구 인사동5길 10 (인사동)","tel":"02-953-0515","image":"https://tong.visitkorea.or.kr/cms/resource/35/4060435_image2_1.jpg","thumbnail":"https://tong.visitkorea.or.kr/cms/resource/35/4060435_image3_1.jpg","lat":37.5728652641047,"lng":126.985653181823,"modifiedAt":"20260427151557"},{"id":"2720203","contentTypeId":"15","title":"2026 서울거리공연 구석구석라이브","address":"서울특별시 종로구 세종대로 지하172 (세종로)","tel":"02-2088-7218","image":"https://tong.visitkorea.or.kr/cms/resource/74/4060474_image2_1.png","thumbnail":"https://tong.visitkorea.or.kr/cms/resource/74/4060474_image3_1.png","lat":37.5716228232824,"lng":126.976787992565,"modifiedAt":"20260427132654"},{"id":"2601364","contentTypeId":"15","title":"수라간 시식공감","address":"서울특별시 종로구 사직로 161 (세종로)","tel":"1522-2295","image":"https://tong.visitkorea.or.kr/cms/resource/27/4060327_image2_1.jpg","thumbnail":"https://tong.visitkorea.or.kr/cms/resource/27/4060327_image3_1.jpg","lat":37.576030700049394,"lng":126.97672186606306,"modifiedAt":"20260427103638"},{"id":"3481597","contentTypeId":"15","title":"페인터즈","address":"서울특별시 중구 정동길 3 (정동)","tel":"02-766-7848","image":"https://tong.visitkorea.or.kr/cms/resource/01/4060301_image2_1.png","thumbnail":"https://tong.visitkorea.or.kr/cms/resource/01/4060301_image3_1.png","lat":37.5681732680976,"lng":126.969976113229,"modifiedAt":"20260427103638"},{"id":"3351451","contentTypeId":"15","title":"K-일러스트레이션페어 마곡 2026","address":"서울특별시 강서구 마곡중앙로 143 (마곡동)","tel":"02-761-2512","image":"https://tong.visitkorea.or.kr/cms/resource/75/4059475_image2_1.jpg","thumbnail":"https://tong.visitkorea.or.kr/cms/resource/75/4059475_image3_1.jpg","lat":37.566727291186524,"lng":126.82539429651213,"modifiedAt":"20260427101901"},{"id":"141759","contentTypeId":"15","title":"종묘대제","address":"서울특별시 종로구 종로 157","tel":"1522-2295","image":"https://tong.visitkorea.or.kr/cms/resource/58/4057758_image2_1.jpg","thumbnail":"https://tong.visitkorea.or.kr/cms/resource/58/4057758_image3_1.jpg","lat":37.5742351620923,"lng":126.994430782881,"modifiedAt":"20260424091626"},{"id":"2818138","contentTypeId":"15","title":"창경궁 야연","address":"서울특별시 종로구 창경궁로 185 (와룡동)","tel":"1522-2295","image":"https://tong.visitkorea.or.kr/cms/resource/49/4059849_image2_1.jpg","thumbnail":"https://tong.visitkorea.or.kr/cms/resource/49/4059849_image3_1.jpg","lat":37.57888092158742,"lng":126.99644883554714,"modifiedAt":"20260424091626"},{"id":"3116066","contentTypeId":"15","title":"한강야경투어","address":"서울특별시 영등포구 여의동로 330 (여의도동)","tel":"02-6953-9239","image":"https://tong.visitkorea.or.kr/cms/resource/46/4060146_image2_1.jpg","thumbnail":"https://tong.visitkorea.or.kr/cms/resource/46/4060146_image3_1.jpg","lat":37.526347853294425,"lng":126.93359519306124,"modifiedAt":"20260424091626"},{"id":"3487939","contentTypeId":"15","title":"강서어린이 동화축제","address":"서울특별시 강서구 금낭화로 178 (방화동)","tel":"02-2600-6986","image":"https://tong.visitkorea.or.kr/cms/resource/56/4059956_image2_1.jpg","thumbnail":"https://tong.visitkorea.or.kr/cms/resource/56/4059956_image3_1.jpg","lat":37.5810326703117,"lng":126.814717992376,"modifiedAt":"20260424091626"},{"id":"3489432","contentTypeId":"15","title":"어린이날 도서관 큰 잔치","address":"서울특별시 강남구 테헤란로7길 21 (역삼동)","tel":"02-3413-4827","image":"https://tong.visitkorea.or.kr/cms/resource/32/4059932_image2_1.jpg","thumbnail":"https://tong.visitkorea.or.kr/cms/resource/32/4059932_image3_1.jpg","lat":37.50067016567467,"lng":127.03015300562205,"modifiedAt":"20260424091626"},{"id":"2598331","contentTypeId":"15","title":"문화가 흐르는 서울광장","address":"서울특별시 중구 을지로 지하12 (을지로1가)","tel":"02-2133-2543","image":"https://tong.visitkorea.or.kr/cms/resource/68/4059668_image2_1.jpg","thumbnail":"https://tong.visitkorea.or.kr/cms/resource/68/4059668_image3_1.jpg","lat":37.56544835496842,"lng":126.97878183534239,"modifiedAt":"20260422105729"},{"id":"3114311","contentTypeId":"15","title":"제3회 쉬엄쉬엄 한강 3종 축제","address":"서울특별시 광진구 능동로 10 (자양동)","tel":"1544-5340","image":"https://tong.visitkorea.or.kr/cms/resource/27/4059027_image2_1.png","thumbnail":"https://tong.visitkorea.or.kr/cms/resource/27/4059027_image3_1.png","lat":37.5317034538759,"lng":127.066765925738,"modifiedAt":"20260420103727"},{"id":"3491755","contentTypeId":"15","title":"2026 서울식품유통대전(K푸드쇼)","address":"서울특별시 서초구 강남대로 27 (양재동)","tel":"02-6965-0014","image":"https://tong.visitkorea.or.kr/cms/resource/63/4058663_image2_1.jpg","thumbnail":"https://tong.visitkorea.or.kr/cms/resource/63/4058663_image3_1.jpg","lat":37.4682787075426,"lng":127.039136433366,"modifiedAt":"20260420103332"},{"id":"2818501","contentTypeId":"15","title":"제132주년 동학농민혁명 기념식","address":"서울특별시 용산구 서빙고로 137 (용산동6가)","tel":"070-4821-4892","image":"https://tong.visitkorea.or.kr/cms/resource/50/4058750_image2_1.jpg","thumbnail":"https://tong.visitkorea.or.kr/cms/resource/50/4058750_image3_1.jpg","lat":37.5247022357875,"lng":126.977740246542,"modifiedAt":"20260417141404"},{"id":"2828431","contentTypeId":"15","title":"한강페스티벌","address":"서울특별시 용산구 이촌로72길 62 (이촌동)","tel":"02-120","image":"https://tong.visitkorea.or.kr/cms/resource/41/4058341_image2_1.jpg","thumbnail":"https://tong.visitkorea.or.kr/cms/resource/41/4058341_image3_1.jpg","lat":37.517820588578,"lng":126.970850893942,"modifiedAt":"20260416133112"},{"id":"2818837","contentTypeId":"15","title":"종묘 묘현례","address":"서울특별시 종로구 종로 157 (훈정동)","tel":"1522-2295","image":"https://tong.visitkorea.or.kr/cms/resource/35/4057835_image2_1.jpg","thumbnail":"https://tong.visitkorea.or.kr/cms/resource/35/4057835_image3_1.jpg","lat":37.57098021727393,"lng":126.99513110232297,"modifiedAt":"20260414143032"},{"id":"1592837","contentTypeId":"15","title":"트로트축제X봄꽃축제","address":"서울특별시 동대문구 장안동","tel":"02-2127-4711","image":"https://tong.visitkorea.or.kr/cms/resource/62/4057062_image2_1.JPG","thumbnail":"https://tong.visitkorea.or.kr/cms/resource/62/4057062_image3_1.JPG","lat":37.5668102,"lng":127.0753419,"modifiedAt":"20260414091950"},{"id":"3107440","contentTypeId":"15","title":"무브살롱 : 살롱그라운드","address":"서울특별시 서초구 양재동","tel":"070-4266-9389","image":"https://tong.visitkorea.or.kr/cms/resource/59/4055559_image2_1.jpg","thumbnail":"https://tong.visitkorea.or.kr/cms/resource/59/4055559_image3_1.jpg","lat":37.475101,"lng":127.03817,"modifiedAt":"20260409105253"},{"id":"3484594","contentTypeId":"15","title":"선농대제","address":"서울특별시 동대문구 무학로44길 38 (제기동)","tel":"02-3295-5566","image":"https://tong.visitkorea.or.kr/cms/resource/16/4053916_image2_1.JPG","thumbnail":"https://tong.visitkorea.or.kr/cms/resource/16/4053916_image3_1.JPG","lat":37.58118375913387,"lng":127.03188855994036,"modifiedAt":"20260408131805"},{"id":"3497454","contentTypeId":"15","title":"의정부지 상설 전통문화행사","address":"서울특별시 종로구 종로1길 45 (세종로)","tel":"02-737-6444","image":"https://tong.visitkorea.or.kr/cms/resource/13/4056513_image2_1.jpg","thumbnail":"https://tong.visitkorea.or.kr/cms/resource/13/4056513_image3_1.jpg","lat":37.574618321885374,"lng":126.97838493180903,"modifiedAt":"20260408113741"},{"id":"3093268","contentTypeId":"15","title":"2026 도서관의 날 · 도서관주간","address":"서울특별시 서초구 반포대로 201 (반포동)","tel":"070-5159-5447","image":"https://tong.visitkorea.or.kr/cms/resource/35/4054535_image2_1.png","thumbnail":"https://tong.visitkorea.or.kr/cms/resource/35/4054535_image3_1.png","lat":37.497628949318255,"lng":127.0045323824191,"modifiedAt":"20260407153148"},{"id":"2828328","contentTypeId":"15","title":"서울스프링페스티벌","address":"서울특별시 영등포구 여의동로 330 (여의도동)","tel":"070-8789-5600, 070-8789-5700","image":"https://tong.visitkorea.or.kr/cms/resource/60/4025160_image2_1.jpg","thumbnail":"https://tong.visitkorea.or.kr/cms/resource/60/4025160_image3_1.jpg","lat":37.5263474738219,"lng":126.933595431713,"modifiedAt":"20260407143723"},{"id":"1800991","contentTypeId":"15","title":"4·19혁명국민문화제","address":"서울특별시 강북구 도봉로89길 13 (수유동)","tel":"02-901-6206","image":"https://tong.visitkorea.or.kr/cms/resource/42/4046242_image2_1.jpg","thumbnail":"https://tong.visitkorea.or.kr/cms/resource/42/4046242_image3_1.jpg","lat":37.63933896676535,"lng":127.0256556277629,"modifiedAt":"20260407095600"},{"id":"2816502","contentTypeId":"15","title":"서울서커스페스티벌","address":"서울특별시 용산구 양녕로 445 (이촌동)","tel":"02-3437-0099","image":"https://tong.visitkorea.or.kr/cms/resource/23/4055623_image2_1.png","thumbnail":"https://tong.visitkorea.or.kr/cms/resource/23/4055623_image3_1.png","lat":37.51766381377982,"lng":126.9580364654902,"modifiedAt":"20260406140349"},{"id":"525755","contentTypeId":"15","title":"영등포 여의도 봄꽃축제","address":"서울 영등포구 여의서로","tel":"02-2670-3128","image":"https://tong.visitkorea.or.kr/cms/resource/07/4041207_image2_1.jpg","thumbnail":"https://tong.visitkorea.or.kr/cms/resource/07/4041207_image3_1.jpg","lat":37.532051,"lng":126.922645,"modifiedAt":"20260406094239"},{"id":"2594815","contentTypeId":"15","title":"정순왕후 문화제","address":"서울특별시 종로구 동망산길 150 (숭인동)","tel":"02-2148-1852","image":"https://tong.visitkorea.or.kr/cms/resource/45/4054945_image2_1.jpg","thumbnail":"https://tong.visitkorea.or.kr/cms/resource/45/4054945_image3_1.jpg","lat":37.57757924133386,"lng":127.01813381267252,"modifiedAt":"20260406094239"},{"id":"2615461","contentTypeId":"15","title":"경복궁 생과방","address":"서울특별시 종로구 사직로 161 (세종로)","tel":"1522-2295","image":"https://tong.visitkorea.or.kr/cms/resource/63/4055163_image2_1.jpg","thumbnail":"https://tong.visitkorea.or.kr/cms/resource/63/4055163_image3_1.jpg","lat":37.576030700049394,"lng":126.97672186606306,"modifiedAt":"20260406094239"},{"id":"3483016","contentTypeId":"15","title":"강서봄빛페스타","address":"서울특별시 강서구 금낭화로 178 (방화동)","tel":"02-2600-6645","image":"https://tong.visitkorea.or.kr/cms/resource/75/4055175_image2_1.jpg","thumbnail":"https://tong.visitkorea.or.kr/cms/resource/75/4055175_image3_1.jpg","lat":37.581035596962515,"lng":126.81462114332409,"modifiedAt":"20260402190051"},{"id":"4054465","contentTypeId":"15","title":"노들 미리봄 페스티벌","address":"서울특별시 용산구 양녕로 445 (이촌동)","tel":"02-550-2518","image":"https://tong.visitkorea.or.kr/cms/resource/64/4054464_image2_1.jpg","thumbnail":"https://tong.visitkorea.or.kr/cms/resource/64/4054464_image3_1.jpg","lat":37.5176638307111,"lng":126.958036465507,"modifiedAt":"20260331172944"},{"id":"3483727","contentTypeId":"15","title":"서대문 봄빛축제","address":"서울특별시 서대문구 모래내로 370 (홍은동)","tel":"02-330-1410","image":"https://tong.visitkorea.or.kr/cms/resource/63/3489263_image2_1.JPG","thumbnail":"https://tong.visitkorea.or.kr/cms/resource/63/3489263_image3_1.JPG","lat":37.581952717846,"lng":126.937032935962,"modifiedAt":"20260331110702"},{"id":"3443073","contentTypeId":"15","title":"퓨처그라운드 (Future Ground)","address":"서울특별시 강서구 하늘길 지하77 (방화동)","tel":"070-8810-2420","image":"https://tong.visitkorea.or.kr/cms/resource/89/4024089_image2_1.jpg","thumbnail":"https://tong.visitkorea.or.kr/cms/resource/89/4024089_image3_1.jpg","lat":37.56214409114423,"lng":126.8015703308394,"modifiedAt":"20260331092345"},{"id":"4053719","contentTypeId":"15","title":"서울 불암산 철쭉제","address":"서울특별시 노원구 한글비석로12길 51-27 (중계동)","tel":"02-2116-0546","image":"https://tong.visitkorea.or.kr/cms/resource/29/4053729_image2_1.jpg","thumbnail":"https://tong.visitkorea.or.kr/cms/resource/29/4053729_image3_1.jpg","lat":37.6554800512795,"lng":127.08063232704,"modifiedAt":"20260330181250"},{"id":"4054203","contentTypeId":"15","title":"이순신 축제","address":"서울특별시 중구 마른내로 47 (초동)","tel":"070-4266-5367","image":"https://tong.visitkorea.or.kr/cms/resource/08/4054208_image2_1.png","thumbnail":"https://tong.visitkorea.or.kr/cms/resource/08/4054208_image3_1.png","lat":37.5647056236712,"lng":126.993214191194,"modifiedAt":"20260330155708"},{"id":"2540520","contentTypeId":"15","title":"양재천 벚꽃 등(燈) 축제","address":"서울특별시 서초구 양재동","tel":"02-2155-8607","image":"https://tong.visitkorea.or.kr/cms/resource/57/4054157_image2_1.jpg","thumbnail":"https://tong.visitkorea.or.kr/cms/resource/57/4054157_image3_1.jpg","lat":37.476614,"lng":127.041515,"modifiedAt":"20260330153708"},{"id":"3377038","contentTypeId":"15","title":"2026 국제선명상대회","address":"서울특별시 강남구 봉은사로 531 (삼성동)","tel":"010-8441-2371","image":"https://tong.visitkorea.or.kr/cms/resource/90/4054090_image2_1.jpg","thumbnail":"https://tong.visitkorea.or.kr/cms/resource/90/4054090_image3_1.jpg","lat":37.5158257049833,"lng":127.057734484281,"modifiedAt":"20260330113621"},{"id":"1592898","contentTypeId":"15","title":"송파구 호수벚꽃축제","address":"서울특별시 송파구 송파나루길 206 (신천동)","tel":"02-2147-2800","image":"https://tong.visitkorea.or.kr/cms/resource/20/4051420_image2_1.jpg","thumbnail":"https://tong.visitkorea.or.kr/cms/resource/20/4051420_image3_1.jpg","lat":37.511898414927,"lng":127.10424458301475,"modifiedAt":"20260326092041"},{"id":"4020878","contentTypeId":"15","title":"쿠키런 : 킹덤 아트 콜라보 프로젝트 특별전 - 위대한 왕국의 유산","address":"서울특별시 종로구 인사동9길 26 (견지동)","tel":"02-514-0134","image":"https://tong.visitkorea.or.kr/cms/resource/77/4020877_image2_1.jpg","thumbnail":"https://tong.visitkorea.or.kr/cms/resource/77/4020877_image3_1.jpg","lat":37.5734697478172,"lng":126.983623718252,"modifiedAt":"20260325093432"},{"id":"1291408","contentTypeId":"15","title":"창덕궁 달빛기행","address":"서울특별시 종로구 율곡로 99 (와룡동)","tel":"1522-2295","image":"https://tong.visitkorea.or.kr/cms/resource/50/4044350_image2_1.jpg","thumbnail":"https://tong.visitkorea.or.kr/cms/resource/50/4044350_image3_1.jpg","lat":37.57765074254216,"lng":126.99023063100555,"modifiedAt":"20260323144353"},{"id":"2949644","contentTypeId":"15","title":"2026 스프링워크서울","address":"서울특별시 중구 회현동1가 100-115","tel":"070-4705-2008","image":"https://tong.visitkorea.or.kr/cms/resource/22/4040522_image2_1.png","thumbnail":"https://tong.visitkorea.or.kr/cms/resource/22/4040522_image3_1.png","lat":37.55509,"lng":126.97908,"modifiedAt":"20260318101005"},{"id":"292961","contentTypeId":"15","title":"서울 왕궁수문장 교대의식","address":"서울특별시 중구 세종대로 99 (정동)","tel":"02-6242-7402","image":"https://tong.visitkorea.or.kr/cms/resource/79/4039379_image2_1.jpg","thumbnail":"https://tong.visitkorea.or.kr/cms/resource/79/4039379_image3_1.jpg","lat":37.565054919430565,"lng":126.97657463444833,"modifiedAt":"20260312090840"},{"id":"2554814","contentTypeId":"15","title":"정조대왕 능행차 공동재현","address":"서울특별시 종로구 사직로 161 (세종로)","tel":"서울 02-786-0610수원 031-5191-2367화성 070-4202-1017","image":"https://tong.visitkorea.or.kr/cms/resource/48/4033348_image2_1.png","thumbnail":"https://tong.visitkorea.or.kr/cms/resource/48/4033348_image3_1.png","lat":37.576030700049394,"lng":126.97672186606306,"modifiedAt":"20260309093631"},{"id":"1307813","contentTypeId":"15","title":"강동선사문화축제","address":"서울특별시 강동구 올림픽로 875 (암사동)","tel":"02-3425-5240","image":"https://tong.visitkorea.or.kr/cms/resource/77/3541977_image2_1.jpg","thumbnail":"https://tong.visitkorea.or.kr/cms/resource/77/3541977_image3_1.jpg","lat":37.55906143476573,"lng":127.13060065465167,"modifiedAt":"20260227174111"},{"id":"1895366","contentTypeId":"15","title":"1919 서대문, 그날의 함성","address":"서울특별시 서대문구 통일로 251 (현저동)","tel":"02-330-1410","image":"https://tong.visitkorea.or.kr/cms/resource/99/4013399_image2_1.jpg","thumbnail":"https://tong.visitkorea.or.kr/cms/resource/99/4013399_image3_1.jpg","lat":37.574618389407945,"lng":126.95732840673385,"modifiedAt":"20260212085932"},{"id":"2620577","contentTypeId":"15","title":"2026 서울국제불교박람회","address":"서울특별시 강남구 영동대로 513 (삼성동)","tel":"02-2231-2013","image":"https://tong.visitkorea.or.kr/cms/resource/03/4013403_image2_1.jpg","thumbnail":"https://tong.visitkorea.or.kr/cms/resource/03/4013403_image3_1.jpg","lat":37.51186515083277,"lng":127.05920358462161,"modifiedAt":"20260211113546"},{"id":"3051471","contentTypeId":"15","title":"굿즈이즈굿V.2","address":"서울특별시 강서구 마곡중앙로 143 (마곡동)","tel":"02-2602-8601","image":"https://tong.visitkorea.or.kr/cms/resource/19/3459619_image2_1.jpg","thumbnail":"https://tong.visitkorea.or.kr/cms/resource/19/3459619_image3_1.jpg","lat":37.566727291186524,"lng":126.82539429651213,"modifiedAt":"20260209105646"},{"id":"1095732","contentTypeId":"15","title":"서울빛초롱축제","address":"서울특별시 중구 태평로1가","tel":"02-3788-8168","image":"https://tong.visitkorea.or.kr/cms/resource/20/3563320_image2_1.jpg","thumbnail":"https://tong.visitkorea.or.kr/cms/resource/20/3563320_image3_1.jpg","lat":37.569204,"lng":126.977633,"modifiedAt":"20260204180500"},{"id":"3509884","contentTypeId":"15","title":"서울썸머비치","address":"서울특별시 종로구 세종대로 지하172 (세종로)","tel":"070-4048-5241","image":"https://tong.visitkorea.or.kr/cms/resource/81/3509881_image2_1.jpg","thumbnail":"https://tong.visitkorea.or.kr/cms/resource/81/3509881_image3_1.jpg","lat":37.57162493367922,"lng":126.9767679221681,"modifiedAt":"20260204180500"},{"id":"3518539","contentTypeId":"15","title":"광복 80년 전야제 - 대한이 살았다!","address":"서울특별시 영등포구 의사당대로 1 (여의도동)","tel":"010-8311-5791","image":"https://tong.visitkorea.or.kr/cms/resource/37/3518537_image2_1.jpg","thumbnail":"https://tong.visitkorea.or.kr/cms/resource/37/3518537_image3_1.jpg","lat":37.52937067955353,"lng":126.91661732505233,"modifiedAt":"20260129133904"},{"id":"2809535","contentTypeId":"15","title":"남산봉수의식 등 전통문화행사","address":"서울특별시 종로구 종로 54 (관철동)","tel":"행사장 02-319-1220운영사 02-737-6444","image":"https://tong.visitkorea.or.kr/cms/resource/57/4001657_image2_1.jpg","thumbnail":"https://tong.visitkorea.or.kr/cms/resource/57/4001657_image3_1.jpg","lat":37.5697673859634,"lng":126.983677617361,"modifiedAt":"20260127161947"},{"id":"2630385","contentTypeId":"15","title":"2026 코리아그랜드세일","address":"서울특별시 중구 명동길 14 (명동2가)","tel":"070-8789-5600","image":"https://tong.visitkorea.or.kr/cms/resource/27/4001627_image2_1.jpg","thumbnail":"https://tong.visitkorea.or.kr/cms/resource/27/4001627_image3_1.jpg","lat":37.5634116488196,"lng":126.98288772495,"modifiedAt":"20260120084307"},{"id":"3107059","contentTypeId":"15","title":"2026 숭례문 파수의식","address":"서울특별시 중구 세종대로 40 (남대문로4가)","tel":"02-3789-7402","image":"https://tong.visitkorea.or.kr/cms/resource/99/4001599_image2_1.jpg","thumbnail":"https://tong.visitkorea.or.kr/cms/resource/99/4001599_image3_1.jpg","lat":37.55992837962214,"lng":126.97536090852309,"modifiedAt":"20260119155233"},{"id":"3035607","contentTypeId":"15","title":"광화문 마켓","address":"서울특별시 종로구 세종대로 지하172 (세종로)","tel":"02-337-3692","image":"http://tong.visitkorea.or.kr/cms/resource/03/3573403_image2_1.png","thumbnail":"http://tong.visitkorea.or.kr/cms/resource/03/3573403_image3_1.png","lat":37.5716786179,"lng":126.9767821434,"modifiedAt":"20251217164154"},{"id":"2640874","contentTypeId":"15","title":"서울라이트 DDP 겨울","address":"서울특별시 중구 을지로 281 (을지로7가)","tel":"02-2153-0000","image":"http://tong.visitkorea.or.kr/cms/resource/83/3583683_image2_1.jpg","thumbnail":"http://tong.visitkorea.or.kr/cms/resource/83/3583683_image3_1.jpg","lat":37.566107632,"lng":127.0095709797,"modifiedAt":"20251217143236"},{"id":"3073454","contentTypeId":"15","title":"서울라이트 광화문","address":"서울특별시 종로구 세종로 1-68 5호선 광화문역","tel":"02-2133-1936","image":"http://tong.visitkorea.or.kr/cms/resource/04/3581704_image2_1.jpg","thumbnail":"http://tong.visitkorea.or.kr/cms/resource/04/3581704_image3_1.jpg","lat":37.5716786179,"lng":126.9767821434,"modifiedAt":"20251211180028"},{"id":"2778088","contentTypeId":"15","title":"관악별빛산책","address":"서울특별시 관악구 신림동 1642-7","tel":"02-828-5743","image":"http://tong.visitkorea.or.kr/cms/resource/88/3580588_image2_1.jpg","thumbnail":"http://tong.visitkorea.or.kr/cms/resource/88/3580588_image3_1.jpg","lat":37.4827825101,"lng":126.9276196866,"modifiedAt":"20251211110933"},{"id":"3439947","contentTypeId":"15","title":"강남 미디어 윈터페스타","address":"서울특별시 강남구 영동대로 511 (삼성동)","tel":"02-6000-0114","image":"http://tong.visitkorea.or.kr/cms/resource/54/3579654_image2_1.jpg","thumbnail":"http://tong.visitkorea.or.kr/cms/resource/54/3579654_image3_1.jpg","lat":37.5103955843,"lng":127.0610512042,"modifiedAt":"20251208174342"},{"id":"3012095","contentTypeId":"15","title":"서울라이트 한강 빛섬축제","address":"서울특별시 광진구 강변북로 2273 (자양동)","tel":"02-6952-4907","image":"http://tong.visitkorea.or.kr/cms/resource/17/3579117_image2_1.jpg","thumbnail":"http://tong.visitkorea.or.kr/cms/resource/17/3579117_image3_1.jpg","lat":37.5294186076,"lng":127.0739939307,"modifiedAt":"20251205171411"},{"id":"1806376","contentTypeId":"15","title":"강동북페스티벌","address":"서울특별시 강동구 양재대로84길 63 (둔촌동)","tel":"02-2045-7919","image":"http://tong.visitkorea.or.kr/cms/resource/89/3567889_image2_1.jpg","thumbnail":"http://tong.visitkorea.or.kr/cms/resource/89/3567889_image3_1.jpg","lat":37.5244036592,"lng":127.1369827856,"modifiedAt":"20251205091844"},{"id":"3069470","contentTypeId":"15","title":"2025 로맨틱 한강 크리스마스 마켓","address":"서울특별시 광진구 강변북로 2202 (자양동)","tel":"070-5149-5313","image":"http://tong.visitkorea.or.kr/cms/resource/34/3578234_image2_1.jpg","thumbnail":"http://tong.visitkorea.or.kr/cms/resource/34/3578234_image3_1.jpg","lat":37.5304044529,"lng":127.0655391172,"modifiedAt":"20251204180141"},{"id":"2785797","contentTypeId":"15","title":"겨울, 청계천의 빛","address":"서울특별시 중구 태평로1가 1","tel":"02-904-1159","image":"http://tong.visitkorea.or.kr/cms/resource/36/3567636_image2_1.jpg","thumbnail":"http://tong.visitkorea.or.kr/cms/resource/36/3567636_image3_1.jpg","lat":37.5691317067,"lng":126.9776154729,"modifiedAt":"20251126161529"},{"id":"2802077","contentTypeId":"15","title":"2025 과학영재교육 페스티벌","address":"서울특별시 강남구 테헤란로7길 22 (역삼동)","tel":"070-8803-6226","image":"http://tong.visitkorea.or.kr/cms/resource/28/3572728_image2_1.jpg","thumbnail":"http://tong.visitkorea.or.kr/cms/resource/28/3572728_image3_1.jpg","lat":37.5007739351,"lng":127.0307542337,"modifiedAt":"20251124155801"},{"id":"3572025","contentTypeId":"15","title":"동궐동락","address":"서울특별시 종로구 창경궁로 185 (와룡동)","tel":"1522-2295","image":"http://tong.visitkorea.or.kr/cms/resource/22/3572022_image2_1.jpg","thumbnail":"http://tong.visitkorea.or.kr/cms/resource/22/3572022_image3_1.jpg","lat":37.5789336838,"lng":126.9964634775,"modifiedAt":"20251121173553"},{"id":"3554794","contentTypeId":"15","title":"2025 대한민국 김장대축제","address":"서울특별시 서초구 강남대로 27 (양재동)","tel":"031-8027-0480","image":"http://tong.visitkorea.or.kr/cms/resource/85/3562885_image2_1.jpg","thumbnail":"http://tong.visitkorea.or.kr/cms/resource/85/3562885_image3_1.jpg","lat":37.467391878,"lng":127.0407514903,"modifiedAt":"20251118150536"},{"id":"629742","contentTypeId":"15","title":"제46회 서울무용제","address":"서울특별시 종로구 대학로8길 7 (동숭동)","tel":"02-744-8066","image":"http://tong.visitkorea.or.kr/cms/resource/87/3567087_image2_1.jpg","thumbnail":"http://tong.visitkorea.or.kr/cms/resource/87/3567087_image3_1.jpg","lat":37.5812640855,"lng":127.0029878163,"modifiedAt":"20251114155335"},{"id":"2761411","contentTypeId":"15","title":"금천하모니축제","address":"서울특별시 금천구 시흥대로73길 70 (시흥동)","tel":"070-4114-6351<br>070-4118-3352","image":"http://tong.visitkorea.or.kr/cms/resource/92/3483192_image2_1.jpg","thumbnail":"http://tong.visitkorea.or.kr/cms/resource/92/3483192_image3_1.jpg","lat":37.4564933229,"lng":126.8955205706,"modifiedAt":"20251114110127"},{"id":"3113222","contentTypeId":"15","title":"온 가족 책 잔치","address":"서울특별시 종로구 북촌로5길 48 (화동)","tel":"02-2011-5742","image":"http://tong.visitkorea.or.kr/cms/resource/51/3564751_image2_1.jpg","thumbnail":"http://tong.visitkorea.or.kr/cms/resource/51/3564751_image3_1.jpg","lat":37.5797361152,"lng":126.982378627,"modifiedAt":"20251111133409"},{"id":"3563444","contentTypeId":"15","title":"방배카페 골목페스타","address":"서울특별시 서초구 방배중앙로 193 (방배동)","tel":"070-4266-5368","image":"http://tong.visitkorea.or.kr/cms/resource/52/3564652_image2_1.png","thumbnail":"http://tong.visitkorea.or.kr/cms/resource/52/3564652_image3_1.png","lat":37.4963319705,"lng":126.9854168201,"modifiedAt":"20251111113720"},{"id":"3524418","contentTypeId":"15","title":"제2회 고메 잇 강남","address":"서울특별시 강남구 영동대로 513 (삼성동)","tel":"070-7734-7796","image":"http://tong.visitkorea.or.kr/cms/resource/24/3563924_image2_1.png","thumbnail":"http://tong.visitkorea.or.kr/cms/resource/24/3563924_image3_1.png","lat":37.5119175967,"lng":127.059217995,"modifiedAt":"20251110155553"},{"id":"2405329","contentTypeId":"15","title":"종로K축제","address":"서울특별시 종로구 세종대로 지하172 (세종로)","tel":"02-6203-1164","image":"http://tong.visitkorea.or.kr/cms/resource/64/3563664_image2_1.jpg","thumbnail":"http://tong.visitkorea.or.kr/cms/resource/64/3563664_image3_1.jpg","lat":37.5716786179,"lng":126.9767821434,"modifiedAt":"20251110105844"},{"id":"2618971","contentTypeId":"15","title":"구로청소년축제","address":"서울특별시 구로구 구로중앙로 48 (구로동)","tel":"02-860-2140","image":"http://tong.visitkorea.or.kr/cms/resource/06/3562606_image2_1.jpg","thumbnail":"http://tong.visitkorea.or.kr/cms/resource/06/3562606_image3_1.jpg","lat":37.4941610735,"lng":126.8900783422,"modifiedAt":"20251106152034"},{"id":"2434313","contentTypeId":"15","title":"성북 책모꼬지 북페스티벌","address":"서울특별시 성북구 보문로 168 (삼선동5가)","tel":"02-6951-2012","image":"http://tong.visitkorea.or.kr/cms/resource/26/3560526_image2_1.jpg","thumbnail":"http://tong.visitkorea.or.kr/cms/resource/26/3560526_image3_1.jpg","lat":37.5894939323,"lng":127.0167863252,"modifiedAt":"20251103145659"},{"id":"3383832","contentTypeId":"15","title":"케미스트릿 강남역 페스티벌","address":"서울특별시 서초구 서초대로77길 17 (서초동)","tel":"02-554-9795","image":"http://tong.visitkorea.or.kr/cms/resource/64/3553464_image2_1.jpg","thumbnail":"http://tong.visitkorea.or.kr/cms/resource/64/3553464_image3_1.jpg","lat":37.4996073141,"lng":127.0257686102,"modifiedAt":"20251103131345"},{"id":"3021762","contentTypeId":"15","title":"가을 , 명동으로","address":"서울특별시 중구 퇴계로 지하126 (충무로2가)","tel":"02-2277-8971","image":"http://tong.visitkorea.or.kr/cms/resource/65/3559865_image2_1.png","thumbnail":"http://tong.visitkorea.or.kr/cms/resource/65/3559865_image3_1.png","lat":37.5609633613,"lng":126.985959388,"modifiedAt":"20251031132445"},{"id":"2865258","contentTypeId":"15","title":"노원 북 페스티벌","address":"서울특별시 노원구 공릉로55길 88 (하계동)","tel":"02-2116-0701","image":"http://tong.visitkorea.or.kr/cms/resource/61/3559561_image2_1.png","thumbnail":"http://tong.visitkorea.or.kr/cms/resource/61/3559561_image3_1.png","lat":37.6320954567,"lng":127.0679693368,"modifiedAt":"20251031101110"},{"id":"2487791","contentTypeId":"15","title":"서울아프리카페스티벌","address":"서울특별시 중구 을지로 281 (을지로7가)","tel":"02-6082-0801","image":"http://tong.visitkorea.or.kr/cms/resource/10/3558510_image2_1.jpg","thumbnail":"http://tong.visitkorea.or.kr/cms/resource/10/3558510_image3_1.jpg","lat":37.566107632,"lng":127.0095709797,"modifiedAt":"20251029141915"},{"id":"2028176","contentTypeId":"15","title":"허준축제","address":"서울특별시 강서구 마곡동로 161 (마곡동)","tel":"02-2600-6455","image":"http://tong.visitkorea.or.kr/cms/resource/63/3557963_image2_1.jpg","thumbnail":"http://tong.visitkorea.or.kr/cms/resource/63/3557963_image3_1.jpg","lat":37.5692236076,"lng":126.8360144928,"modifiedAt":"20251028170719"},{"id":"2756476","contentTypeId":"15","title":"세계유산 조선왕릉축전","address":"서울특별시 강남구 선릉로100길 1 (삼성동)","tel":"1522-2295","image":"http://tong.visitkorea.or.kr/cms/resource/15/3423615_image2_1.jpg","thumbnail":"http://tong.visitkorea.or.kr/cms/resource/15/3423615_image3_1.jpg","lat":37.5071957139,"lng":127.0475969642,"modifiedAt":"20251028143227"}]}